gps_seconds[s],file_name,latitude[deg],longitude[deg],altitude_ellipsoidal[m],roll[deg],pitch[deg],heading[deg],projectedX[m],projectedY[m],projectedZ[m]
1315208378.654,pano_000000_000125,51.6323681,0.2977788,133.089,1.78733,-2.22429,-120.42112,559122.405,195117.281,87.799
1315208378.779,pano_000000_000126,51.6323806,0.2978175,133.059,1.97863,-2.23598,-120.43837,559125.034,195118.751,87.769
1315208378.904,pano_000000_000127,51.6323931,0.2978561,133.037,2.18183,-2.00038,-120.43554,559127.666,195120.226,87.747
1315208379.029,pano_000000_000128,51.6324056,0.2978948,133.008,2.24567,-2.05909,-120.44525,559130.297,195121.697,87.717
1315208379.154,pano_000000_000129,51.632418,0.2979335,132.974,2.14827,-1.98362,-120.45708,559132.934,195123.164,87.683
1315208379.279,pano_000000_000130,51.6324304,0.2979722,132.931,2.04535,-1.96384,-120.44354,559135.569,195124.63,87.64
1315208379.404,pano_000000_000131,51.6324428,0.298011,132.886,1.95585,-1.82305,-120.41351,559138.207,195126.096,87.596
1315208379.529,pano_000000_000132,51.6324552,0.2980497,132.839,1.87838,-1.84086,-120.39155,559140.843,195127.56,87.549
1315208379.654,pano_000000_000133,51.6324677,0.2980884,132.797,1.88241,-1.80529,-120.3754,559143.48,195129.026,87.506
1315208379.779,pano_000000_000134,51.6324801,0.2981271,132.753,1.90458,-1.93144,-120.34333,559146.115,195130.492,87.463
1315208379.904,pano_000000_000135,51.6324925,0.2981659,132.711,1.85676,-1.88901,-120.29453,559148.754,195131.956,87.42
1315208380.029,pano_000000_000136,51.6325049,0.2982047,132.666,1.82357,-1.80002,-120.25626,559151.396,195133.419,87.376
1315208380.154,pano_000000_000137,51.6325173,0.2982435,132.62,1.75238,-1.82351,-120.2163,559154.038,195134.878,87.33
1315208380.279,pano_000000_000138,51.6325296,0.2982823,132.576,1.70005,-1.84365,-120.19711,559156.681,195136.337,87.286
1315208380.404,pano_000000_000139,51.632542,0.2983211,132.532,1.70372,-1.9094,-120.19853,559159.325,195137.795,87.242
1315208380.529,pano_000000_000140,51.6325544,0.29836,132.49,1.76279,-1.84309,-120.18868,559161.969,195139.256,87.2
1315208380.654,pano_000000_000141,51.6325667,0.2983989,132.444,1.80601,-1.62816,-120.17514,559164.617,195140.719,87.153
1315208380.779,pano_000000_000142,51.6325791,0.2984377,132.387,1.89825,-1.70229,-120.1775,559167.26,195142.181,87.097
1315208380.904,pano_000000_000143,51.6325915,0.2984766,132.332,1.9476,-1.68843,-120.19092,559169.907,195143.642,87.042
1315208381.029,pano_000000_000144,51.6326039,0.2985155,132.278,1.85732,-1.63447,-120.1937,559172.556,195145.101,86.988
1315208381.154,pano_000000_000145,51.6326162,0.2985544,132.223,1.73426,-1.50468,-120.20376,559175.208,195146.559,86.933
1315208381.279,pano_000000_000146,51.6326286,0.2985933,132.163,1.68641,-1.54715,-120.20319,559177.859,195148.018,86.873
1315208381.404,pano_000000_000147,51.632641,0.2986322,132.099,1.66137,-1.61288,-120.20154,559180.508,195149.479,86.809
1315208381.529,pano_000000_000148,51.6326533,0.2986712,132.039,1.62977,-1.56553,-120.19859,559183.158,195150.941,86.749
1315208381.654,pano_000000_000149,51.6326657,0.2987101,131.983,1.59852,-1.43365,-120.20881,559185.811,195152.404,86.693
1315208381.779,pano_000000_000150,51.6326781,0.2987491,131.921,1.5599,-1.63869,-120.21235,559188.461,195153.864,86.631
1315208381.904,pano_000000_000151,51.6326905,0.298788,131.863,1.56958,-1.67051,-120.22283,559191.111,195155.327,86.573
1315208382.03,pano_000000_000152,51.632703,0.2988273,131.808,1.55591,-1.32779,-120.21937,559193.789,195156.807,86.518
1315208382.154,pano_000000_000153,51.6327153,0.2988659,131.74,1.53283,-1.3804,-120.22044,559196.419,195158.259,86.45
1315208382.279,pano_000000_000154,51.6327277,0.2989048,131.667,1.561,-1.64855,-120.23744,559199.067,195159.722,86.377
1315208382.404,pano_000000_000155,51.6327401,0.2989438,131.607,1.53432,-1.45176,-120.24173,559201.72,195161.188,86.317
1315208382.529,pano_000000_000156,51.6327526,0.2989828,131.546,1.55282,-1.41816,-120.25826,559204.372,195162.655,86.256
1315208382.655,pano_000000_000157,51.6327651,0.299022,131.48,1.60227,-1.39531,-120.26026,559207.045,195164.135,86.19
1315208382.78,pano_000000_000158,51.6327775,0.2990609,131.409,1.55053,-1.40291,-120.2494,559209.696,195165.601,86.119
1315208382.905,pano_000000_000159,51.6327899,0.2990999,131.339,1.45995,-1.48644,-120.25794,559212.348,195167.064,86.049
1315208383.03,pano_000000_000160,51.6328024,0.2991389,131.277,1.46815,-1.40849,-120.26758,559215.002,195168.531,85.987
1315208383.155,pano_000000_000161,51.6328148,0.2991779,131.21,1.53455,-1.33245,-120.2684,559217.655,195170.002,85.92
1315208383.28,pano_000000_000162,51.6328273,0.2992168,131.137,1.6013,-1.52845,-120.27708,559220.305,195171.472,85.847
1315208383.405,pano_000000_000163,51.6328398,0.2992558,131.072,1.62708,-1.44781,-120.30254,559222.963,195172.944,85.782
1315208383.53,pano_000000_000164,51.6328522,0.2992949,131.008,1.5476,-1.33624,-120.3248,559225.626,195174.417,85.718
1315208383.655,pano_000000_000165,51.6328647,0.299334,130.933,1.50989,-1.50436,-120.35365,559228.284,195175.889,85.643
1315208383.78,pano_000000_000166,51.6328772,0.299373,130.863,1.54985,-1.60757,-120.38407,559230.943,195177.366,85.573
1315208383.905,pano_000000_000167,51.6328898,0.2994122,130.801,1.46807,-1.41332,-120.40376,559233.609,195178.845,85.511
1315208384.03,pano_000000_000168,51.6329023,0.2994513,130.735,1.41507,-1.52312,-120.44735,559236.275,195180.325,85.445
1315208384.155,pano_000000_000169,51.6329149,0.2994905,130.669,1.5337,-1.70637,-120.48873,559238.942,195181.815,85.38
1315208384.28,pano_000000_000170,51.6329277,0.2995298,130.606,1.90327,-1.38254,-120.51456,559241.615,195183.321,85.316
1315208384.405,pano_000000_000171,51.6329405,0.299569,130.527,2.18713,-1.54244,-120.52077,559244.285,195184.826,85.238
1315208384.53,pano_000000_000172,51.6329532,0.2996085,130.458,2.0928,-1.49536,-120.53601,559246.97,195186.327,85.168
1315208384.655,pano_000000_000173,51.6329659,0.2996481,130.393,1.81657,-1.45563,-120.5594,559249.666,195187.824,85.103
1315208384.78,pano_000000_000174,51.6329786,0.2996876,130.324,1.76737,-1.60003,-120.55943,559252.36,195189.327,85.034
1315208384.905,pano_000000_000175,51.6329914,0.2997273,130.256,1.79962,-1.55139,-120.51255,559255.056,195190.838,84.967
1315208385.03,pano_000000_000176,51.6330042,0.299767,130.189,1.78677,-1.39144,-120.49102,559257.759,195192.349,84.899
1315208385.155,pano_000000_000177,51.6330171,0.2998067,130.119,1.84422,-1.47756,-120.48153,559260.462,195193.86,84.829
1315208385.28,pano_000000_000178,51.6330299,0.2998464,130.053,1.93633,-1.47379,-120.4787,559263.169,195195.375,84.763
1315208385.405,pano_000000_000179,51.6330427,0.2998862,129.982,1.84967,-1.75268,-120.44293,559265.875,195196.883,84.693
1315208385.53,pano_000000_000180,51.6330555,0.2999262,129.927,1.58176,-1.32502,-120.46629,559268.595,195198.39,84.638
1315208385.655,pano_000000_000181,51.6330683,0.2999661,129.865,1.54283,-1.20482,-120.45856,559271.313,195199.903,84.575
1315208385.78,pano_000000_000182,51.6330811,0.3000059,129.785,1.67084,-1.59551,-120.4396,559274.022,195201.417,84.496
1315208385.905,pano_000000_000183,51.633094,0.3000458,129.71,1.80638,-1.38219,-120.38999,559276.738,195202.937,84.421
1315208386.03,pano_000000_000184,51.6331069,0.3000857,129.636,1.94007,-1.35953,-120.37856,559279.456,195204.455,84.346
1315208386.155,pano_000000_000185,51.6331197,0.3001258,129.567,1.79286,-1.30567,-120.34657,559282.185,195205.969,84.277
1315208386.28,pano_000000_000186,51.6331325,0.3001659,129.491,1.57737,-1.61362,-120.35077,559284.916,195207.476,84.201
1315208386.405,pano_000000_000187,51.6331453,0.3002061,129.423,1.57479,-1.58006,-120.34844,559287.654,195208.994,84.134
1315208386.525,pano_000000_000188,51.6331577,0.3002448,129.359,1.64837,-1.50713,-120.31134,559290.287,195210.458,84.069
1315208386.645,pano_000000_000189,51.6331702,0.3002835,129.29,1.74703,-1.57063,-120.30775,559292.924,195211.924,84.001
1315208386.765,pano_000000_000190,51.6331826,0.3003224,129.225,1.82215,-1.49829,-120.32398,559295.569,195213.394,83.936
1315208386.885,pano_000000_000191,51.6331951,0.3003614,129.155,1.81913,-1.42658,-120.33542,559298.224,195214.867,83.866
1315208387.006,pano_000000_000192,51.6332077,0.3004008,129.078,1.8598,-1.58137,-120.35475,559300.904,195216.355,83.789
1315208387.125,pano_000000_000193,51.6332201,0.3004396,129.004,1.82058,-1.7044,-120.35643,559303.549,195217.822,83.715
1315208387.246,pano_000000_000194,51.6332328,0.3004793,128.939,1.78933,-1.4592,-120.36962,559306.252,195219.321,83.65
1315208387.365,pano_000000_000195,51.6332453,0.3005184,128.87,1.70718,-1.48481,-120.37024,559308.913,195220.796,83.581
1315208387.485,pano_000000_000196,51.633258,0.3005578,128.797,1.65218,-1.65889,-120.39238,559311.597,195222.285,83.508
1315208387.606,pano_000000_000197,51.6332707,0.3005976,128.733,1.7001,-1.66676,-120.43477,559314.309,195223.793,83.444
1315208387.726,pano_000000_000198,51.6332835,0.3006372,128.676,1.84483,-1.38071,-120.45297,559317.002,195225.298,83.387
1315208387.846,pano_000000_000199,51.6332963,0.3006768,128.606,1.94617,-1.40056,-120.46212,559319.693,195226.803,83.316
1315208387.966,pano_000000_000200,51.633309,0.3007163,128.531,1.89047,-1.57024,-120.47126,559322.385,195228.304,83.241
1315208388.086,pano_000000_000201,51.6333217,0.300756,128.464,1.78106,-1.48894,-120.50847,559325.085,195229.806,83.175
1315208388.206,pano_000000_000202,51.6333345,0.3007956,128.397,1.73847,-1.43081,-120.52882,559327.785,195231.31,83.108
1315208388.326,pano_000000_000203,51.6333473,0.3008353,128.329,1.72491,-1.27602,-120.53266,559330.484,195232.819,83.039
1315208388.446,pano_000000_000204,51.63336,0.3008749,128.255,1.70736,-1.49146,-120.55063,559333.181,195234.327,82.965
1315208388.566,pano_000000_000205,51.6333728,0.3009145,128.185,1.71782,-1.57046,-120.57856,559335.879,195235.836,82.896
1315208388.686,pano_000000_000206,51.6333857,0.3009542,128.12,1.7388,-1.39118,-120.60626,559338.581,195237.351,82.83
1315208388.806,pano_000000_000207,51.6333986,0.3009939,128.049,1.86115,-1.30929,-120.62966,559341.28,195238.869,82.759
1315208388.926,pano_000000_000208,51.6334114,0.3010335,127.974,1.95841,-1.411,-120.63962,559343.977,195240.388,82.685
1315208389.046,pano_000000_000209,51.6334243,0.3010732,127.904,1.97883,-1.44414,-120.66093,559346.676,195241.906,82.615
1315208389.166,pano_000000_000210,51.6334372,0.3011129,127.836,1.97018,-1.3549,-120.67531,559349.379,195243.425,82.546
1315208389.286,pano_000000_000211,51.63345,0.3011525,127.764,1.88914,-1.47408,-120.6843,559352.079,195244.941,82.475
1315208389.406,pano_000000_000212,51.6334629,0.3011923,127.7,1.86331,-1.42462,-120.70419,559354.782,195246.461,82.41
1315208389.526,pano_000000_000213,51.6334759,0.301232,127.634,1.8805,-1.45619,-120.72248,559357.485,195247.984,82.344
1315208389.646,pano_000000_000214,51.6334888,0.3012717,127.563,1.90096,-1.35658,-120.71672,559360.188,195249.509,82.274
1315208389.766,pano_000000_000215,51.6335017,0.3013114,127.488,1.86752,-1.37899,-120.71973,559362.89,195251.032,82.199
1315208389.886,pano_000000_000216,51.6335146,0.3013511,127.416,1.86078,-1.42866,-120.72611,559365.594,195252.555,82.127
1315208390.006,pano_000000_000217,51.6335276,0.3013909,127.347,1.85666,-1.44054,-120.71081,559368.298,195254.08,82.058
1315208390.126,pano_000000_000218,51.6335405,0.3014306,127.277,1.84692,-1.38709,-120.68022,559371.003,195255.604,81.988
1315208390.246,pano_000000_000219,51.6335534,0.3014704,127.208,1.8377,-1.38993,-120.64981,559373.709,195257.128,81.919
1315208390.366,pano_000000_000220,51.6335663,0.3015101,127.139,1.85851,-1.38702,-120.62171,559376.416,195258.651,81.85
1315208390.486,pano_000000_000221,51.6335792,0.3015499,127.069,1.85199,-1.40739,-120.59422,559379.125,195260.173,81.78
1315208390.606,pano_000000_000222,51.6335921,0.3015897,126.996,1.84492,-1.36832,-120.57139,559381.834,195261.693,81.707
1315208390.726,pano_000000_000223,51.633605,0.3016295,126.923,1.87041,-1.52721,-120.56879,559384.542,195263.212,81.634
1315208390.846,pano_000000_000224,51.6336179,0.3016694,126.858,1.98929,-1.39109,-120.54226,559387.254,195264.736,81.569
1315208390.966,pano_000000_000225,51.6336308,0.3017092,126.788,2.03077,-1.32334,-120.51372,559389.965,195266.258,81.499
1315208391.086,pano_000000_000226,51.6336437,0.301749,126.715,1.96902,-1.40194,-120.48602,559392.678,195267.774,81.426
1315208391.206,pano_000000_000227,51.6336565,0.3017889,126.645,1.77071,-1.65613,-120.4734,559395.393,195269.284,81.356
1315208391.326,pano_000000_000228,51.6336693,0.3018289,126.584,1.6448,-1.50352,-120.46102,559398.114,195270.796,81.295
1315208391.447,pano_000000_000229,51.6336823,0.3018692,126.519,1.63874,-1.25543,-120.43315,559400.857,195272.326,81.23
1315208391.567,pano_000000_000230,51.6336951,0.3019091,126.444,1.77065,-1.39343,-120.40073,559403.57,195273.844,81.155
1315208391.687,pano_000000_000231,51.633708,0.3019489,126.37,1.88482,-1.64528,-120.3645,559406.282,195275.359,81.081
1315208391.807,pano_000000_000232,51.6337208,0.3019889,126.308,1.8385,-1.50686,-120.3416,559409.003,195276.872,81.02
1315208391.927,pano_000000_000233,51.6337336,0.3020289,126.247,1.77844,-1.23088,-120.32565,559411.728,195278.383,80.958
1315208392.047,pano_000000_000234,51.6337464,0.3020688,126.173,1.76403,-1.37325,-120.30358,559414.447,195279.892,80.884
1315208392.167,pano_000000_000235,51.6337592,0.3021087,126.099,1.84507,-1.58783,-120.29413,559417.164,195281.401,80.81
1315208392.287,pano_000000_000236,51.633772,0.3021487,126.034,1.93146,-1.42558,-120.27094,559419.885,195282.913,80.745
1315208392.407,pano_000000_000237,51.6337848,0.3021887,125.969,1.95715,-1.37394,-120.24014,559422.607,195284.423,80.68
1315208392.527,pano_000000_000238,51.6337975,0.3022287,125.901,1.9,-1.34333,-120.21333,559425.332,195285.929,80.612
1315208392.647,pano_000000_000239,51.6338103,0.3022687,125.825,1.80447,-1.54077,-120.1883,559428.054,195287.429,80.536
1315208392.767,pano_000000_000240,51.6338229,0.3023088,125.756,1.55411,-1.48821,-120.18908,559430.782,195288.927,80.468
1315208392.887,pano_000000_000241,51.6338356,0.3023488,125.694,1.50426,-1.40788,-120.18419,559433.508,195290.427,80.405
1315208393.007,pano_000000_000242,51.6338484,0.3023888,125.632,1.52862,-1.50391,-120.16544,559436.233,195291.93,80.343
1315208393.127,pano_000000_000243,51.6338611,0.3024288,125.565,1.55756,-1.58612,-120.14176,559438.955,195293.433,80.277
1315208393.247,pano_000000_000244,51.6338738,0.3024688,125.501,1.60308,-1.51022,-120.12972,559441.678,195294.935,80.213
1315208393.367,pano_000000_000245,51.6338865,0.3025088,125.44,1.62388,-1.53456,-120.11897,559444.401,195296.435,80.151
1315208393.487,pano_000000_000246,51.6338992,0.3025488,125.379,1.61042,-1.57031,-120.10559,559447.125,195297.934,80.091
1315208393.607,pano_000000_000247,51.6339119,0.3025888,125.317,1.58552,-1.5763,-120.106,559449.85,195299.432,80.029
1315208393.727,pano_000000_000248,51.6339246,0.3026288,125.256,1.59804,-1.52386,-120.09598,559452.573,195300.93,79.967
1315208393.847,pano_000000_000249,51.6339373,0.3026689,125.194,1.60991,-1.50213,-120.07698,559455.298,195302.428,79.905
1315208393.967,pano_000000_000250,51.6339499,0.3027088,125.128,1.57166,-1.61089,-120.06913,559458.021,195303.923,79.839
1315208394.087,pano_000000_000251,51.6339626,0.3027488,125.064,1.51453,-1.68575,-120.06756,559460.744,195305.416,79.776
1315208394.207,pano_000000_000252,51.6339753,0.3027889,125.009,1.55049,-1.56306,-120.07612,559463.47,195306.913,79.721
1315208394.327,pano_000000_000253,51.6339879,0.3028288,124.951,1.61062,-1.59059,-120.09104,559466.192,195308.411,79.662
1315208394.447,pano_000000_000254,51.6340006,0.3028689,124.892,1.59226,-1.41189,-120.04514,559468.916,195309.908,79.603
1315208394.567,pano_000000_000255,51.6340132,0.3029088,124.826,1.56927,-1.80573,-120.06971,559471.635,195311.398,79.538
1315208394.687,pano_000000_000256,51.6340259,0.3029488,124.77,1.50732,-1.76048,-120.07297,559474.36,195312.891,79.482
1315208394.807,pano_000000_000257,51.6340385,0.3029888,124.716,1.50417,-1.58068,-120.06448,559477.083,195314.385,79.428
1315208394.927,pano_000000_000258,51.6340512,0.3030288,124.661,1.49797,-1.60946,-120.0638,559479.805,195315.879,79.373
1315208395.047,pano_000000_000259,51.6340638,0.3030687,124.606,1.48423,-1.79608,-120.08096,559482.524,195317.371,79.318
1315208395.167,pano_000000_000260,51.6340765,0.3031086,124.552,1.50735,-1.83959,-120.09071,559485.244,195318.866,79.264
1315208395.287,pano_000000_000261,51.6340892,0.3031486,124.503,1.55531,-1.59722,-120.09926,559487.965,195320.363,79.214
1315208395.407,pano_000000_000262,51.6341018,0.3031885,124.448,1.61104,-1.73821,-120.09886,559490.681,195321.858,79.159
1315208395.527,pano_000000_000263,51.6341145,0.3032284,124.395,1.6596,-1.87314,-120.10756,559493.398,195323.353,79.107
1315208395.647,pano_000000_000264,51.6341272,0.3032683,124.347,1.7839,-1.70913,-120.11854,559496.116,195324.852,79.059
1315208395.767,pano_000000_000265,51.6341399,0.3033082,124.296,1.93604,-1.72723,-120.11352,559498.83,195326.351,79.007
1315208395.887,pano_000000_000266,51.6341525,0.3033481,124.246,1.9278,-1.87345,-120.1206,559501.545,195327.846,78.957
1315208396.008,pano_000000_000267,51.6341653,0.3033884,124.202,1.73628,-1.7949,-120.13221,559504.288,195329.348,78.914
1315208396.128,pano_000000_000268,51.6341778,0.3034282,124.156,1.51011,-2.1393,-120.16461,559507.004,195330.833,78.868
1315208396.248,pano_000000_000269,51.6341905,0.3034682,124.121,1.48666,-1.93653,-120.18399,559509.724,195332.328,78.833
1315208396.368,pano_000000_000270,51.6342032,0.3035081,124.079,1.55593,-1.70389,-120.17963,559512.44,195333.827,78.791
1315208396.488,pano_000000_000271,51.6342159,0.3035479,124.029,1.66404,-1.91166,-120.17543,559515.149,195335.326,78.741
1315208396.608,pano_000000_000272,51.6342286,0.3035877,123.983,1.7128,-2.0739,-120.18082,559517.859,195336.823,78.694
1315208396.728,pano_000000_000273,51.6342412,0.3036276,123.944,1.66941,-1.81251,-120.19113,559520.575,195338.319,78.656
1315208396.848,pano_000000_000274,51.6342539,0.3036674,123.903,1.55322,-1.85543,-120.21017,559523.288,195339.812,78.615
1315208396.968,pano_000000_000275,51.6342665,0.3037072,123.858,1.4858,-2.0711,-120.22963,559525.998,195341.304,78.57
1315208397.088,pano_000000_000276,51.6342792,0.303747,123.818,1.52151,-2.00479,-120.23225,559528.708,195342.802,78.53
1315208397.208,pano_000000_000277,51.6342919,0.3037868,123.781,1.61711,-1.9621,-120.23646,559531.415,195344.301,78.493
1315208397.328,pano_000000_000278,51.6343046,0.3038266,123.745,1.69602,-2.01538,-120.23864,559534.122,195345.8,78.457
1315208397.448,pano_000000_000279,51.6343173,0.3038663,123.706,1.70369,-1.92778,-120.23358,559536.829,195347.298,78.418
1315208397.568,pano_000000_000280,51.6343299,0.3039061,123.665,1.63965,-1.98106,-120.25111,559539.535,195348.792,78.377
1315208397.688,pano_000000_000281,51.6343426,0.3039458,123.625,1.5518,-2.27341,-120.26716,559542.238,195350.283,78.337
1315208397.808,pano_000000_000282,51.6343553,0.3039856,123.599,1.57168,-2.04202,-120.27577,559544.946,195351.781,78.311
1315208397.928,pano_000000_000283,51.634368,0.3040253,123.568,1.60096,-1.92119,-120.26606,559547.65,195353.279,78.28
1315208398.048,pano_000000_000284,51.6343806,0.3040649,123.529,1.61105,-2.07991,-120.26524,559550.35,195354.774,78.241
1315208398.168,pano_000000_000285,51.6343933,0.3041046,123.494,1.70079,-2.3682,-120.27263,559553.048,195356.27,78.206
1315208398.288,pano_000000_000286,51.634406,0.3041443,123.472,1.7487,-2.10639,-120.27083,559555.751,195357.768,78.184
1315208398.408,pano_000000_000287,51.6344187,0.304184,123.444,1.7412,-2.04295,-120.25387,559558.453,195359.264,78.156
1315208398.528,pano_000000_000288,51.6344313,0.3042236,123.409,1.73572,-2.0558,-120.23805,559561.153,195360.758,78.121
1315208398.648,pano_000000_000289,51.634444,0.3042633,123.373,1.69767,-2.19953,-120.2295,559563.852,195362.249,78.085
1315208398.768,pano_000000_000290,51.6344566,0.3043029,123.342,1.71831,-2.1753,-120.2143,559566.553,195363.741,78.055
1315208398.889,pano_000000_000291,51.6344694,0.3043429,123.315,1.81659,-2.1266,-120.1986,559569.273,195365.247,78.027
1315208399.009,pano_000000_000292,51.634482,0.3043825,123.289,1.90992,-2.15508,-120.21399,559571.97,195366.741,78.001
1315208399.128,pano_000000_000293,51.6344945,0.3044217,123.261,2.04598,-2.46263,-120.1838,559574.641,195368.22,77.973
1315208399.248,pano_000000_000294,51.6345072,0.3044614,123.238,2.09697,-2.14875,-120.18288,559577.34,195369.712,77.95
1315208399.368,pano_000000_000295,51.6345198,0.304501,123.214,2.054,-2.12943,-120.15871,559580.037,195371.2,77.926
1315208399.488,pano_000000_000296,51.6345323,0.3045406,123.188,1.81966,-2.43912,-120.1715,559582.733,195372.677,77.9
1315208399.608,pano_000000_000297,51.6345448,0.3045802,123.17,1.58384,-2.47103,-120.2356,559585.432,195374.154,77.882
1315208399.728,pano_000000_000298,51.6345574,0.3046199,123.154,1.51117,-2.17072,-120.30571,559588.13,195375.639,77.866
1315208399.848,pano_000000_000299,51.63457,0.3046593,123.128,1.64551,-2.26245,-120.34301,559590.816,195377.131,77.841
1315208399.968,pano_000000_000300,51.6345827,0.3046988,123.104,1.68468,-2.31432,-120.38845,559593.502,195378.624,77.816
1315208400.088,pano_000000_000301,51.6345953,0.3047382,123.079,1.66308,-2.36078,-120.46043,559596.188,195380.117,77.791
1315208400.209,pano_000000_000302,51.6346081,0.304778,123.056,1.66186,-2.36102,-120.51402,559598.894,195381.626,77.769
1315208400.329,pano_000000_000303,51.6346208,0.3048174,123.038,1.74349,-2.13182,-120.56484,559601.578,195383.128,77.751
1315208400.449,pano_000000_000304,51.6346335,0.3048567,123.011,1.73122,-2.54553,-120.61118,559604.254,195384.626,77.723
1315208400.568,pano_000000_000305,51.6346462,0.3048958,122.994,1.68848,-2.43826,-120.67238,559606.913,195386.116,77.707
1315208400.689,pano_000000_000306,51.6346591,0.3049355,122.98,1.68265,-2.23833,-120.73401,559609.616,195387.635,77.693
1315208400.809,pano_000000_000307,51.6346719,0.3049749,122.96,1.65037,-2.13055,-120.76467,559612.296,195389.145,77.672
1315208400.929,pano_000000_000308,51.6346846,0.3050142,122.927,1.59838,-2.37716,-120.80194,559614.971,195390.652,77.639
1315208401.049,pano_000000_000309,51.6346975,0.3050535,122.899,1.72436,-2.24641,-120.86853,559617.647,195392.169,77.611
1315208401.169,pano_000000_000310,51.6347104,0.3050928,122.868,1.82256,-2.34533,-120.90675,559620.317,195393.687,77.58
1315208401.289,pano_000000_000311,51.6347233,0.3051321,122.848,1.77858,-2.1654,-120.95801,559622.993,195395.206,77.56
1315208401.409,pano_000000_000312,51.6347362,0.3051714,122.825,1.8236,-2.37769,-121.01491,559625.664,195396.725,77.537
1315208401.529,pano_000000_000313,51.6347491,0.3052106,122.8,1.9066,-2.31801,-121.03022,559628.333,195398.251,77.513
1315208401.649,pano_000000_000314,51.6347621,0.3052498,122.775,1.9462,-2.14728,-121.01181,559631.003,195399.777,77.487
1315208401.769,pano_000000_000315,51.634775,0.3052891,122.748,1.89477,-2.27017,-121.01538,559633.672,195401.299,77.46
1315208401.889,pano_000000_000316,51.6347879,0.3053283,122.723,1.82298,-2.50182,-121.02355,559636.342,195402.82,77.436
1315208402.009,pano_000000_000317,51.6348008,0.3053676,122.704,1.70973,-2.21079,-121.01027,559639.016,195404.342,77.417
1315208402.129,pano_000000_000318,51.6348137,0.3054068,122.681,1.67553,-2.12681,-121.01281,559641.687,195405.863,77.393
1315208402.249,pano_000000_000319,51.6348267,0.305446,122.656,1.79158,-2.43713,-121.01048,559644.353,195407.387,77.368
1315208402.369,pano_000000_000320,51.6348396,0.3054852,122.634,1.93765,-2.47118,-120.91743,559647.02,195408.915,77.346
1315208402.489,pano_000000_000321,51.6348526,0.3055245,122.615,1.98617,-2.11705,-120.76351,559649.694,195410.44,77.328
1315208402.609,pano_000000_000322,51.6348654,0.3055638,122.59,2.05125,-2.18864,-120.66178,559652.367,195411.955,77.303
1315208402.729,pano_000000_000323,51.6348782,0.3056031,122.563,1.92293,-2.49781,-120.61108,559655.043,195413.459,77.275
1315208402.849,pano_000000_000324,51.6348909,0.3056426,122.543,1.74734,-2.34674,-120.64017,559657.728,195414.96,77.255
1315208402.969,pano_000000_000325,51.6349036,0.305682,122.523,1.65034,-2.09482,-120.6751,559660.412,195416.463,77.236
1315208403.089,pano_000000_000326,51.6349164,0.3057213,122.497,1.74135,-2.2497,-120.68498,559663.089,195417.971,77.209
1315208403.209,pano_000000_000327,51.6349293,0.3057606,122.47,1.9175,-2.39574,-120.65475,559665.764,195419.484,77.183
1315208403.329,pano_000000_000328,51.6349421,0.3058,122.447,2.0173,-2.24865,-120.62115,559668.443,195420.996,77.159
1315208403.449,pano_000000_000329,51.6349549,0.3058394,122.422,2.05878,-2.16053,-120.60741,559671.124,195422.504,77.134
1315208403.569,pano_000000_000330,51.6349676,0.3058788,122.395,2.08309,-2.31338,-120.59152,559673.804,195424.009,77.108
1315208403.689,pano_000000_000331,51.6349804,0.3059182,122.372,2.05456,-2.35702,-120.58021,559676.486,195425.513,77.085
1315208403.809,pano_000000_000332,51.6349931,0.3059576,122.352,1.99068,-2.19916,-120.57324,559679.171,195427.016,77.065
1315208403.929,pano_000000_000333,51.6350058,0.3059971,122.328,1.85379,-2.29569,-120.54795,559681.853,195428.514,77.041
1315208404.049,pano_000000_000334,51.6350185,0.3060365,122.307,1.71265,-2.42213,-120.51871,559684.537,195430.011,77.019
1315208404.169,pano_000000_000335,51.6350312,0.3060759,122.29,1.55735,-2.44144,-120.50037,559687.224,195431.507,77.003
1315208404.289,pano_000000_000336,51.6350439,0.3061154,122.274,1.4689,-2.3574,-120.47408,559689.911,195433.005,76.987
1315208404.409,pano_000000_000337,51.6350566,0.3061549,122.255,1.47324,-2.04483,-120.44554,559692.599,195434.506,76.968
1315208404.529,pano_000000_000338,51.6350693,0.3061943,122.221,1.53944,-2.45364,-120.42651,559695.279,195436.003,76.934
1315208404.649,pano_000000_000339,51.635082,0.3062337,122.198,1.53054,-2.57917,-120.42583,559697.963,195437.499,76.911
1315208404.769,pano_000000_000340,51.6350947,0.3062733,122.186,1.45456,-2.14911,-120.42335,559700.656,195438.997,76.899
1315208404.889,pano_000000_000341,51.6351073,0.3063127,122.165,1.45091,-2.1678,-120.4182,559703.342,195440.493,76.878
1315208405.01,pano_000000_000342,51.6351201,0.3063525,122.137,1.53785,-2.41408,-120.41359,559706.047,195442.003,76.85
1315208405.129,pano_000000_000343,51.6351328,0.3063916,122.112,1.67203,-2.31738,-120.37648,559708.709,195443.491,76.825
1315208405.25,pano_000000_000344,51.6351455,0.3064314,122.087,1.63592,-2.27873,-120.3096,559711.417,195444.998,76.8
1315208405.37,pano_000000_000345,51.6351582,0.3064709,122.066,1.59763,-2.23051,-120.27975,559714.107,195446.489,76.779
1315208405.49,pano_000000_000346,51.6351708,0.3065104,122.045,1.64772,-2.37017,-120.24486,559716.795,195447.979,76.757
1315208405.61,pano_000000_000347,51.6351834,0.3065499,122.02,1.76096,-2.25604,-120.2087,559719.484,195449.471,76.733
1315208405.73,pano_000000_000348,51.635196,0.3065894,121.991,1.70662,-2.29804,-120.16137,559722.173,195450.956,76.704
1315208405.85,pano_000000_000349,51.6352085,0.3066289,121.97,1.60751,-2.27579,-120.14191,559724.867,195452.438,76.683
1315208405.97,pano_000000_000350,51.6352211,0.3066685,121.95,1.45847,-2.46383,-120.1492,559727.56,195453.915,76.663
1315208406.09,pano_000000_000351,51.6352336,0.3067081,121.936,1.35379,-2.3298,-120.14345,559730.256,195455.395,76.649
1315208406.209,pano_000000_000352,51.635246,0.3067473,121.916,1.34037,-2.3127,-120.14523,559732.927,195456.865,76.629
1315208406.33,pano_000000_000353,51.6352587,0.3067872,121.892,1.37393,-2.22948,-120.12822,559735.643,195458.362,76.605
1315208406.45,pano_000000_000354,51.6352713,0.3068268,121.861,1.34286,-2.19271,-120.11566,559738.336,195459.844,76.574
1315208406.57,pano_000000_000355,51.6352838,0.3068663,121.831,1.37636,-2.40958,-120.145,559741.027,195461.325,76.544
1315208406.689,pano_000000_000356,51.6352963,0.3069055,121.81,1.45573,-2.38592,-120.16291,559743.697,195462.798,76.524
1315208406.81,pano_000000_000357,51.635309,0.3069454,121.791,1.47564,-2.2096,-120.17885,559746.413,195464.296,76.504
1315208406.93,pano_000000_000358,51.6353216,0.306985,121.767,1.60865,-2.10959,-120.20399,559749.104,195465.785,76.48
1315208407.05,pano_000000_000359,51.6353342,0.3070244,121.735,1.69981,-2.36497,-120.22026,559751.791,195467.272,76.449
1315208407.17,pano_000000_000360,51.6353468,0.3070639,121.709,1.70315,-2.32363,-120.23001,559754.482,195468.759,76.422
1315208407.29,pano_000000_000361,51.6353594,0.3071035,121.686,1.70732,-2.18903,-120.25013,559757.175,195470.247,76.399
1315208407.41,pano_000000_000362,51.635372,0.307143,121.66,1.72098,-2.34839,-120.27257,559759.863,195471.734,76.373
1315208407.53,pano_000000_000363,51.6353846,0.3071825,121.641,1.71592,-2.35721,-120.27729,559762.552,195473.222,76.354
1315208407.65,pano_000000_000364,51.6353972,0.3072221,121.624,1.76291,-2.1404,-120.31018,559765.245,195474.715,76.337
1315208407.77,pano_000000_000365,51.6354099,0.3072615,121.593,1.79645,-2.24836,-120.30925,559767.932,195476.206,76.306
1315208407.89,pano_000000_000366,51.6354225,0.307301,121.559,1.89018,-2.48531,-120.32943,559770.616,195477.696,76.273
1315208408.01,pano_000000_000367,51.6354352,0.3073405,121.542,1.97639,-2.12709,-120.35592,559773.307,195479.193,76.255
1315208408.13,pano_000000_000368,51.6354478,0.30738,121.518,1.97287,-2.28308,-120.37339,559775.994,195480.686,76.232
1315208408.25,pano_000000_000369,51.6354605,0.3074194,121.496,1.97371,-2.3509,-120.41485,559778.68,195482.178,76.209
1315208408.37,pano_000000_000370,51.6354731,0.3074589,121.474,1.99774,-2.21094,-120.43114,559781.367,195483.675,76.187
1315208408.49,pano_000000_000371,51.6354858,0.3074984,121.446,1.93588,-2.20965,-120.44556,559784.053,195485.17,76.159
1315208408.61,pano_000000_000372,51.6354985,0.3075378,121.418,1.8905,-2.2885,-120.46131,559786.738,195486.663,76.131
1315208408.73,pano_000000_000373,51.6355112,0.3075773,121.393,1.90219,-2.28862,-120.48722,559789.425,195488.161,76.107
1315208408.85,pano_000000_000374,51.6355239,0.3076167,121.368,2.14636,-2.17382,-120.53007,559792.107,195489.667,76.082
1315208408.97,pano_000000_000375,51.6355367,0.307656,121.337,2.31128,-2.30304,-120.51969,559794.784,195491.172,76.05
1315208409.09,pano_000000_000376,51.6355494,0.3076954,121.314,2.28049,-2.41345,-120.56061,559797.465,195492.671,76.028
1315208409.21,pano_000000_000377,51.6355621,0.3077348,121.303,2.23623,-2.35215,-120.60173,559800.149,195494.171,76.016
1315208409.33,pano_000000_000378,51.6355748,0.3077742,121.286,2.21486,-2.44464,-120.63036,559802.829,195495.673,75.999
1315208409.45,pano_000000_000379,51.6355876,0.3078136,121.269,2.14502,-2.3716,-120.63396,559805.509,195497.175,75.982
1315208409.57,pano_000000_000380,51.6356003,0.307853,121.251,2.11081,-2.34526,-120.64425,559808.19,195498.678,75.965
1315208409.69,pano_000000_000381,51.6356131,0.3078924,121.233,2.05738,-2.40221,-120.66444,559810.87,195500.182,75.946
1315208409.81,pano_000000_000382,51.6356258,0.3079318,121.21,2.04236,-2.33292,-120.66008,559813.551,195501.688,75.924
1315208409.93,pano_000000_000383,51.6356386,0.3079711,121.185,2.10739,-2.11314,-120.64938,559816.231,195503.198,75.899
1315208410.05,pano_000000_000384,51.6356514,0.3080105,121.156,2.11656,-2.36085,-120.64213,559818.907,195504.703,75.87
1315208410.17,pano_000000_000385,51.6356642,0.3080499,121.134,2.00002,-2.28597,-120.62887,559821.59,195506.207,75.848
1315208410.29,pano_000000_000386,51.6356769,0.3080892,121.11,1.86792,-2.39666,-120.62822,559824.269,195507.706,75.824
1315208410.41,pano_000000_000387,51.6356896,0.3081287,121.096,1.79464,-2.28849,-120.60717,559826.951,195509.209,75.809
1315208410.53,pano_000000_000388,51.6357024,0.3081681,121.077,1.80277,-2.25836,-120.5876,559829.634,195510.714,75.79
1315208410.65,pano_000000_000389,51.6357151,0.3082074,121.046,1.86208,-2.19854,-120.54148,559832.313,195512.22,75.76
1315208410.77,pano_000000_000390,51.6357278,0.3082468,121.013,1.85326,-2.43155,-120.51268,559834.991,195513.72,75.727
1315208410.89,pano_000000_000391,51.6357405,0.3082862,120.996,1.76803,-2.34108,-120.50039,559837.676,195515.219,75.71
1315208411.011,pano_000000_000392,51.6357534,0.308326,120.98,1.76253,-2.26001,-120.48491,559840.385,195516.731,75.694
1315208411.13,pano_000000_000393,51.635766,0.3083651,120.956,1.8475,-2.19843,-120.45218,559843.045,195518.219,75.67
1315208411.251,pano_000000_000394,51.6357788,0.3084048,120.927,1.99059,-2.36227,-120.41665,559845.746,195519.731,75.641
1315208411.371,pano_000000_000395,51.6357915,0.3084442,120.907,2.03915,-2.38866,-120.37758,559848.429,195521.229,75.621
1315208411.491,pano_000000_000396,51.6358042,0.3084838,120.891,2.01659,-2.04312,-120.34228,559851.12,195522.726,75.604
1315208411.611,pano_000000_000397,51.6358168,0.3085232,120.857,1.94951,-2.20452,-120.31596,559853.806,195524.216,75.571
1315208411.731,pano_000000_000398,51.6358294,0.3085626,120.824,1.8978,-2.50144,-120.31065,559856.49,195525.702,75.538
1315208411.851,pano_000000_000399,51.635842,0.3086021,120.809,1.99254,-2.43385,-120.32449,559859.177,195527.194,75.522
1315208411.971,pano_000000_000400,51.6358547,0.3086416,120.799,2.20992,-2.1647,-120.30762,559861.866,195528.694,75.513
1315208412.091,pano_000000_000401,51.6358674,0.308681,120.769,2.28351,-2.52757,-120.27057,559864.547,195530.185,75.483
1315208412.211,pano_000000_000402,51.63588,0.3087205,120.747,2.20915,-2.31659,-120.27035,559867.235,195531.672,75.461
1315208412.331,pano_000000_000403,51.6358925,0.3087601,120.73,1.93723,-2.31278,-120.26212,559869.929,195533.153,75.444
1315208412.451,pano_000000_000404,51.6359051,0.3087996,120.711,1.84972,-2.48446,-120.28834,559872.619,195534.635,75.425
1315208412.571,pano_000000_000405,51.6359177,0.3088391,120.694,1.84967,-2.23312,-120.25176,559875.31,195536.125,75.408
1315208412.691,pano_000000_000406,51.6359303,0.3088786,120.669,1.81527,-2.09214,-120.2046,559878.001,195537.613,75.383
1315208412.811,pano_000000_000407,51.6359428,0.3089181,120.635,1.74402,-2.29987,-120.18637,559880.69,195539.095,75.349
1315208412.931,pano_000000_000408,51.6359554,0.3089577,120.608,1.66202,-2.43963,-120.18937,559883.38,195540.575,75.322
1315208413.051,pano_000000_000409,51.6359679,0.3089972,120.591,1.6075,-2.36803,-120.18465,559886.073,195542.058,75.305
1315208413.172,pano_000000_000410,51.6359806,0.3090371,120.575,1.54977,-2.17043,-120.16027,559888.791,195543.555,75.289
1315208413.292,pano_000000_000411,51.6359931,0.3090767,120.548,1.49582,-2.25833,-120.1386,559891.482,195545.036,75.262
1315208413.412,pano_000000_000412,51.6360057,0.3091161,120.519,1.52885,-2.45987,-120.1322,559894.17,195546.517,75.233
1315208413.532,pano_000000_000413,51.6360183,0.3091557,120.501,1.57873,-2.32679,-120.11216,559896.864,195548.002,75.215
1315208413.652,pano_000000_000414,51.6360308,0.3091953,120.482,1.51568,-2.15987,-120.09258,559899.56,195549.484,75.196
1315208413.772,pano_000000_000415,51.6360433,0.3092349,120.454,1.50824,-2.25556,-120.09018,559902.252,195550.963,75.168
1315208413.892,pano_000000_000416,51.6360558,0.3092744,120.425,1.44484,-2.46281,-120.10355,559904.943,195552.44,75.139
1315208414.012,pano_000000_000417,51.6360684,0.309314,120.407,1.42777,-2.18529,-120.09941,559907.641,195553.922,75.121
1315208414.132,pano_000000_000418,51.6360809,0.3093536,120.381,1.45127,-2.31864,-120.12019,559910.336,195555.404,75.095
1315208414.252,pano_000000_000419,51.6360935,0.3093931,120.35,1.51873,-2.5656,-120.16616,559913.024,195556.884,75.064
1315208414.372,pano_000000_000420,51.6361061,0.3094327,120.335,1.70764,-2.09598,-120.13846,559915.718,195558.376,75.049
1315208414.492,pano_000000_000421,51.6361187,0.3094722,120.315,1.73949,-2.35481,-120.16538,559918.409,195559.86,75.029
1315208414.612,pano_000000_000422,51.6361312,0.3095118,120.294,1.6897,-2.38861,-120.20487,559921.104,195561.344,75.008
1315208414.732,pano_000000_000423,51.6361438,0.3095514,120.264,1.40453,-2.07047,-120.2075,559923.801,195562.823,74.978
1315208414.852,pano_000000_000424,51.6361562,0.3095909,120.231,1.11714,-2.68414,-120.26073,559926.488,195564.293,74.945
1315208414.972,pano_000000_000425,51.6361688,0.3096304,120.225,1.12514,-2.6682,-120.30215,559929.181,195565.778,74.94
1315208415.092,pano_000000_000426,51.6361815,0.30967,120.224,1.22899,-2.08554,-120.30943,559931.874,195567.274,74.938
1315208415.212,pano_000000_000427,51.6361941,0.3097093,120.2,1.43998,-2.44402,-120.33326,559934.554,195568.768,74.914
1315208415.332,pano_000000_000428,51.6362068,0.3097488,120.175,1.52314,-2.37191,-120.34692,559937.24,195570.263,74.89
1315208415.452,pano_000000_000429,51.6362194,0.3097883,120.15,1.51807,-2.37546,-120.39099,559939.927,195571.755,74.864
1315208415.572,pano_000000_000430,51.6362321,0.3098278,120.129,1.53865,-2.27337,-120.41825,559942.615,195573.249,74.843
1315208415.692,pano_000000_000431,51.6362448,0.3098672,120.108,1.58197,-2.36253,-120.45891,559945.3,195574.745,74.822
1315208415.812,pano_000000_000432,51.6362575,0.3099067,120.084,1.75287,-2.28582,-120.47137,559947.984,195576.247,74.799
1315208415.932,pano_000000_000433,51.6362702,0.3099461,120.056,1.72445,-2.15406,-120.47726,559950.668,195577.746,74.77
1315208416.052,pano_000000_000434,51.6362828,0.3099855,120.028,1.56653,-2.49461,-120.52897,559953.35,195579.237,74.742
1315208416.172,pano_000000_000435,51.6362955,0.310025,120.013,1.48524,-2.34783,-120.58652,559956.039,195580.734,74.728
1315208416.292,pano_000000_000436,51.6363083,0.3100644,119.994,1.59837,-2.18746,-120.60801,559958.721,195582.24,74.708
1315208416.412,pano_000000_000437,51.6363211,0.3101038,119.968,1.68852,-2.12941,-120.61255,559961.401,195583.747,74.682
1315208416.532,pano_000000_000438,51.6363338,0.3101431,119.934,1.66498,-2.44487,-120.64412,559964.077,195585.249,74.649
1315208416.652,pano_000000_000439,51.6363465,0.3101825,119.911,1.53312,-2.31857,-120.66106,559966.76,195586.752,74.626
1315208416.772,pano_000000_000440,51.6363593,0.3102219,119.891,1.53099,-2.28946,-120.71356,559969.439,195588.256,74.606
1315208416.892,pano_000000_000441,51.6363721,0.3102612,119.873,1.7086,-2.45263,-120.73968,559972.112,195589.767,74.587
1315208417.012,pano_000000_000442,51.6363849,0.3103005,119.859,1.82811,-2.33506,-120.74329,559974.788,195591.282,74.573
1315208417.132,pano_000000_000443,51.6363978,0.3103398,119.837,1.85822,-2.12775,-120.74797,559977.465,195592.795,74.552
1315208417.252,pano_000000_000444,51.6364106,0.3103791,119.805,1.78058,-2.34743,-120.74953,559980.139,195594.302,74.52
1315208417.372,pano_000000_000445,51.6364233,0.3104184,119.78,1.78191,-2.55135,-120.78184,559982.813,195595.81,74.494
1315208417.492,pano_000000_000446,51.6364362,0.3104578,119.764,1.87735,-2.23455,-120.75653,559985.492,195597.327,74.479
1315208417.613,pano_000000_000447,51.6364492,0.3104975,119.742,1.90574,-1.88047,-120.71392,559988.192,195598.854,74.457
1315208417.733,pano_000000_000448,51.6364619,0.3105367,119.706,1.8635,-2.53171,-120.70313,559990.862,195600.358,74.42
1315208417.853,pano_000000_000449,51.6364747,0.3105761,119.685,1.82146,-2.61989,-120.70206,559993.539,195601.864,74.4
1315208417.973,pano_000000_000450,51.6364875,0.3106155,119.674,1.81819,-1.96565,-120.69656,559996.225,195603.377,74.389
1315208418.093,pano_000000_000451,51.6365003,0.3106548,119.646,1.95926,-2.12408,-120.67167,559998.899,195604.888,74.361
1315208418.213,pano_000000_000452,51.6365131,0.3106941,119.612,2.06676,-2.54893,-120.6628,560001.57,195606.396,74.327
1315208418.333,pano_000000_000453,51.6365259,0.3107335,119.593,2.10991,-2.22359,-120.64532,560004.252,195607.907,74.307
1315208418.453,pano_000000_000454,51.6365387,0.3107729,119.57,2.0891,-2.20585,-120.6413,560006.933,195609.413,74.285
1315208418.573,pano_000000_000455,51.6365515,0.3108123,119.548,2.09532,-2.09083,-120.62918,560009.615,195610.921,74.263
1315208418.693,pano_000000_000456,51.6365642,0.3108516,119.514,2.07368,-2.72286,-120.61606,560012.288,195612.421,74.229
1315208418.813,pano_000000_000457,51.6365769,0.310891,119.5,1.95677,-2.27469,-120.60675,560014.975,195613.925,74.215
1315208418.933,pano_000000_000458,51.6365897,0.3109305,119.486,1.8819,-2.18169,-120.60418,560017.66,195615.428,74.201
1315208419.053,pano_000000_000459,51.6366024,0.3109699,119.46,1.83165,-2.46791,-120.61508,560020.34,195616.93,74.175
1315208419.173,pano_000000_000460,51.6366152,0.3110093,119.435,1.84507,-2.16033,-120.5929,560023.023,195618.436,74.149
1315208419.293,pano_000000_000461,51.6366279,0.3110487,119.407,1.85688,-2.31277,-120.59349,560025.703,195619.94,74.122
1315208419.413,pano_000000_000462,51.6366407,0.3110881,119.385,1.87981,-2.45787,-120.62061,560028.383,195621.444,74.1
1315208419.533,pano_000000_000463,51.6366535,0.3111275,119.364,1.90051,-2.16512,-120.61697,560031.066,195622.951,74.078
1315208419.653,pano_000000_000464,51.6366662,0.3111668,119.337,1.89066,-2.27766,-120.60999,560033.742,195624.454,74.052
1315208419.773,pano_000000_000465,51.636679,0.3112062,119.316,1.92269,-2.45421,-120.6067,560036.42,195625.958,74.031
1315208419.893,pano_000000_000466,51.6366917,0.3112456,119.299,1.93899,-2.20181,-120.59611,560039.103,195627.464,74.014
1315208420.013,pano_000000_000467,51.6367045,0.3112849,119.273,1.97139,-2.34646,-120.59309,560041.781,195628.967,73.988
1315208420.133,pano_000000_000468,51.6367172,0.3113243,119.251,2.02706,-2.43125,-120.57726,560044.461,195630.473,73.966
1315208420.253,pano_000000_000469,51.63673,0.3113637,119.229,1.98384,-2.31232,-120.55488,560047.145,195631.977,73.944
1315208420.373,pano_000000_000470,51.6367427,0.3114031,119.205,2.02303,-2.38056,-120.55038,560049.825,195633.478,73.92
1315208420.493,pano_000000_000471,51.6367555,0.3114425,119.188,2.147,-2.21621,-120.55083,560052.507,195634.985,73.903
1315208420.613,pano_000000_000472,51.6367682,0.3114819,119.163,2.33142,-2.46167,-120.54319,560055.184,195636.491,73.878
1315208420.733,pano_000000_000473,51.636781,0.3115213,119.139,2.36382,-1.95465,-120.49028,560057.87,195637.999,73.855
1315208420.853,pano_000000_000474,51.6367937,0.3115608,119.106,2.15304,-2.24341,-120.50073,560060.552,195639.492,73.821
1315208420.973,pano_000000_000475,51.6368063,0.3116002,119.079,1.93128,-2.60931,-120.48372,560063.237,195640.981,73.794
1315208421.093,pano_000000_000476,51.6368189,0.3116397,119.063,1.72305,-2.27187,-120.47542,560065.928,195642.474,73.778
1315208421.213,pano_000000_000477,51.6368316,0.3116792,119.042,1.74975,-2.19612,-120.46262,560068.613,195643.972,73.757
1315208421.333,pano_000000_000478,51.6368444,0.3117186,119.02,1.86848,-2.15676,-120.41939,560071.296,195645.474,73.735
1315208421.453,pano_000000_000479,51.6368571,0.311758,118.99,1.94136,-2.51564,-120.39367,560073.975,195646.971,73.705
1315208421.573,pano_000000_000480,51.6368697,0.3117974,118.968,1.96101,-2.37355,-120.37412,560076.661,195648.467,73.683
1315208421.693,pano_000000_000481,51.6368824,0.3118369,118.952,1.90071,-2.11271,-120.3731,560079.351,195649.961,73.667
1315208421.813,pano_000000_000482,51.636895,0.3118764,118.927,1.90388,-2.39285,-120.37589,560082.036,195651.453,73.642
1315208421.934,pano_000000_000483,51.6369078,0.3119162,118.902,1.92519,-2.2699,-120.36244,560084.746,195652.961,73.617
1315208422.054,pano_000000_000484,51.6369205,0.3119557,118.875,1.94669,-2.19628,-120.3118,560087.433,195654.456,73.59
1315208422.174,pano_000000_000485,51.6369331,0.3119952,118.85,1.81321,-2.42892,-120.302,560090.12,195655.942,73.566
1315208422.294,pano_000000_000486,51.6369457,0.3120347,118.836,1.68934,-2.2521,-120.31986,560092.814,195657.43,73.552
1315208422.414,pano_000000_000487,51.6369583,0.3120743,118.813,1.75434,-2.09719,-120.28884,560095.504,195658.923,73.528
1315208422.534,pano_000000_000488,51.6369709,0.3121136,118.777,1.86878,-2.38289,-120.25353,560098.185,195660.414,73.493
1315208422.654,pano_000000_000489,51.6369835,0.3121531,118.756,1.83701,-2.66876,-120.2405,560100.871,195661.899,73.471
1315208422.774,pano_000000_000490,51.6369962,0.3121928,118.753,1.75844,-2.01849,-120.22137,560103.573,195663.39,73.468
1315208422.894,pano_000000_000491,51.6370087,0.3122324,118.723,1.54305,-1.99266,-120.17774,560106.267,195664.873,73.438
1315208423.014,pano_000000_000492,51.6370212,0.3122718,118.674,1.59824,-2.5343,-120.15255,560108.949,195666.352,73.39
1315208423.134,pano_000000_000493,51.6370338,0.3123113,118.652,1.77827,-2.33493,-120.11425,560111.639,195667.842,73.367
1315208423.254,pano_000000_000494,51.6370464,0.3123509,118.637,1.7052,-2.44337,-120.09713,560114.334,195669.324,73.353
1315208423.374,pano_000000_000495,51.6370589,0.3123906,118.624,1.60555,-1.94877,-120.07314,560117.035,195670.806,73.34
1315208423.494,pano_000000_000496,51.6370714,0.31243,118.587,1.66243,-2.3431,-120.06846,560119.721,195672.282,73.303
1315208423.614,pano_000000_000497,51.637084,0.3124694,118.56,1.87864,-2.93313,-120.08835,560122.402,195673.762,73.275
1315208423.734,pano_000000_000498,51.6370966,0.3125091,118.561,1.89942,-2.2228,-120.02389,560125.103,195675.249,73.277
1315208423.854,pano_000000_000499,51.637109,0.3125487,118.542,1.78147,-2.13534,-120.03603,560127.801,195676.724,73.258
1315208423.974,pano_000000_000500,51.6371215,0.3125882,118.508,1.78574,-2.47817,-120.03628,560130.49,195678.198,73.224
1315208424.094,pano_000000_000501,51.637134,0.3126278,118.483,1.78585,-2.23633,-120.00713,560133.186,195679.677,73.199
1315208424.214,pano_000000_000502,51.6371465,0.3126674,118.459,1.71449,-2.2402,-119.9757,560135.883,195681.151,73.175
1315208424.334,pano_000000_000503,51.637159,0.312707,118.437,1.61061,-2.41273,-119.97033,560138.579,195682.621,73.153
1315208424.454,pano_000000_000504,51.6371714,0.3127466,118.419,1.56343,-2.45511,-119.98936,560141.275,195684.093,73.134
1315208424.574,pano_000000_000505,51.6371839,0.3127862,118.404,1.64689,-2.161,-119.98539,560143.973,195685.571,73.12
1315208424.694,pano_000000_000506,51.6371964,0.3128258,118.38,1.74311,-2.24932,-119.99974,560146.668,195687.05,73.096
1315208424.814,pano_000000_000507,51.6372089,0.3128654,118.35,1.75986,-2.37574,-120.01461,560149.363,195688.527,73.065
1315208424.934,pano_000000_000508,51.6372214,0.312905,118.321,1.72817,-2.35941,-120.04747,560152.059,195690.002,73.036
1315208425.054,pano_000000_000509,51.6372339,0.3129446,118.302,1.72573,-2.24253,-120.09198,560154.757,195691.48,73.018
1315208425.174,pano_000000_000510,51.6372465,0.3129842,118.282,1.75729,-2.2821,-120.12611,560157.452,195692.961,72.998
1315208425.294,pano_000000_000511,51.637259,0.3130238,118.257,1.77659,-2.21827,-120.14139,560160.146,195694.444,72.973
1315208425.414,pano_000000_000512,51.6372716,0.3130633,118.228,1.78377,-2.33711,-120.17314,560162.837,195695.925,72.944
1315208425.534,pano_000000_000513,51.6372841,0.3131029,118.205,1.72761,-2.26969,-120.20195,560165.532,195697.408,72.921
1315208425.655,pano_000000_000514,51.6372968,0.3131428,118.182,1.6203,-2.46018,-120.25166,560168.246,195698.901,72.897
1315208425.775,pano_000000_000515,51.6373094,0.3131824,118.166,1.54086,-2.2248,-120.29239,560170.942,195700.387,72.882
1315208425.895,pano_000000_000516,51.637322,0.3132219,118.145,1.50819,-2.20604,-120.32462,560173.633,195701.874,72.861
1315208426.015,pano_000000_000517,51.6373346,0.3132614,118.12,1.54984,-2.28341,-120.33978,560176.321,195703.365,72.835
1315208426.135,pano_000000_000518,51.6373472,0.3133008,118.094,1.60748,-2.4194,-120.36902,560179.007,195704.857,72.81
1315208426.255,pano_000000_000519,51.6373599,0.3133404,118.074,1.63169,-2.27982,-120.41414,560181.696,195706.353,72.79
1315208426.375,pano_000000_000520,51.6373726,0.3133798,118.05,1.63786,-2.35395,-120.44565,560184.383,195707.848,72.766
1315208426.495,pano_000000_000521,51.6373853,0.3134193,118.026,1.69727,-2.2299,-120.47779,560187.068,195709.347,72.742
1315208426.615,pano_000000_000522,51.637398,0.3134587,118.001,1.80017,-2.24803,-120.49094,560189.751,195710.848,72.717
1315208426.735,pano_000000_000523,51.6374107,0.3134981,117.977,1.80622,-2.39728,-120.49891,560192.433,195712.346,72.693
1315208426.855,pano_000000_000524,51.6374234,0.3135376,117.956,1.77559,-2.31662,-120.49771,560195.118,195713.845,72.672
1315208426.975,pano_000000_000525,51.6374361,0.313577,117.935,1.67218,-2.25923,-120.47971,560197.803,195715.341,72.651
1315208427.095,pano_000000_000526,51.6374487,0.3136165,117.913,1.62883,-2.32583,-120.46901,560200.487,195716.837,72.629
1315208427.215,pano_000000_000527,51.6374615,0.3136559,117.892,1.68307,-2.20041,-120.4491,560203.174,195718.337,72.608
1315208427.335,pano_000000_000528,51.6374741,0.3136953,117.86,1.77088,-2.37862,-120.43139,560205.855,195719.836,72.576
1315208427.455,pano_000000_000529,51.6374869,0.3137348,117.838,1.7821,-2.11602,-120.39604,560208.542,195721.335,72.554
1315208427.575,pano_000000_000530,51.6374995,0.3137742,117.81,1.78697,-2.41131,-120.40525,560211.225,195722.829,72.526
1315208427.696,pano_000000_000531,51.6375123,0.313814,117.786,1.77695,-2.37813,-120.40928,560213.933,195724.336,72.502
1315208427.815,pano_000000_000532,51.6375248,0.3138532,117.764,1.74416,-2.21432,-120.40392,560216.598,195725.818,72.48
1315208427.935,pano_000000_000533,51.6375375,0.3138926,117.741,1.73404,-2.31524,-120.40954,560219.283,195727.311,72.457
1315208428.055,pano_000000_000534,51.6375501,0.3139321,117.72,1.68903,-2.39193,-120.41322,560221.97,195728.804,72.436
1315208428.175,pano_000000_000535,51.6375628,0.3139716,117.698,1.58714,-2.3189,-120.42491,560224.66,195730.297,72.415
1315208428.295,pano_000000_000536,51.6375754,0.3140111,117.673,1.57382,-2.24821,-120.43501,560227.347,195731.792,72.39
1315208428.415,pano_000000_000537,51.6375881,0.3140505,117.649,1.63609,-2.29483,-120.44275,560230.032,195733.29,72.365
1315208428.536,pano_000000_000538,51.6376009,0.3140903,117.624,1.72444,-2.2902,-120.45964,560232.739,195734.802,72.34
1315208428.656,pano_000000_000539,51.6376136,0.3141297,117.598,1.74371,-2.35261,-120.46407,560235.422,195736.3,72.314
1315208428.776,pano_000000_000540,51.6376263,0.3141692,117.576,1.69765,-2.19516,-120.47315,560238.109,195737.797,72.292
1315208428.896,pano_000000_000541,51.637639,0.3142087,117.551,1.67811,-2.2193,-120.49196,560240.793,195739.293,72.267
1315208429.016,pano_000000_000542,51.6376517,0.3142481,117.525,1.6511,-2.35231,-120.51136,560243.476,195740.79,72.241
1315208429.136,pano_000000_000543,51.6376644,0.3142875,117.501,1.63439,-2.4192,-120.52107,560246.158,195742.288,72.217
1315208429.256,pano_000000_000544,51.6376771,0.3143269,117.482,1.63279,-2.23839,-120.52932,560248.843,195743.788,72.198
1315208429.376,pano_000000_000545,51.6376898,0.3143664,117.46,1.59911,-2.22863,-120.51816,560251.526,195745.288,72.177
1315208429.496,pano_000000_000546,51.6377025,0.3144057,117.435,1.53689,-2.49852,-120.53279,560254.206,195746.785,72.151
1315208429.616,pano_000000_000547,51.6377152,0.3144452,117.418,1.4752,-2.31684,-120.54648,560256.893,195748.284,72.134
1315208429.736,pano_000000_000548,51.6377279,0.3144847,117.396,1.47034,-2.21372,-120.54673,560259.577,195749.786,72.112
1315208429.856,pano_000000_000549,51.6377406,0.314524,117.368,1.50908,-2.41776,-120.57187,560262.257,195751.287,72.084
1315208429.976,pano_000000_000550,51.6377534,0.3145635,117.345,1.54803,-2.18786,-120.5649,560264.941,195752.793,72.061
1315208430.096,pano_000000_000551,51.6377662,0.3146029,117.315,1.58474,-2.1765,-120.5853,560267.623,195754.297,72.032
1315208430.216,pano_000000_000552,51.6377789,0.3146423,117.286,1.62793,-2.31591,-120.57877,560270.302,195755.801,72.002
1315208430.336,pano_000000_000553,51.6377917,0.3146817,117.261,1.68164,-2.2601,-120.53933,560272.984,195757.306,71.978
1315208430.456,pano_000000_000554,51.6378044,0.3147211,117.238,1.74387,-2.29929,-120.4953,560275.665,195758.81,71.955
1315208430.576,pano_000000_000555,51.6378171,0.3147605,117.217,1.79479,-2.38266,-120.44624,560278.347,195760.311,71.933
1315208430.696,pano_000000_000556,51.6378298,0.3147999,117.198,1.79063,-2.33087,-120.415,560281.032,195761.81,71.914
1315208430.816,pano_000000_000557,51.6378425,0.3148394,117.176,1.74786,-2.31152,-120.37033,560283.718,195763.305,71.893
1315208430.936,pano_000000_000558,51.6378552,0.3148789,117.152,1.75361,-2.29111,-120.35856,560286.405,195764.799,71.868
1315208431.056,pano_000000_000559,51.6378678,0.3149184,117.128,1.73462,-2.14599,-120.31547,560289.094,195766.292,71.845
1315208431.176,pano_000000_000560,51.6378804,0.3149578,117.1,1.73444,-2.50281,-120.30686,560291.779,195767.781,71.817
1315208431.296,pano_000000_000561,51.637893,0.3149973,117.081,1.69235,-2.38905,-120.31515,560294.469,195769.271,71.797
1315208431.416,pano_000000_000562,51.6379057,0.3150369,117.062,1.62778,-2.19721,-120.32064,560297.16,195770.761,71.779
1315208431.536,pano_000000_000563,51.6379183,0.3150764,117.039,1.59981,-2.25164,-120.33593,560299.849,195772.251,71.756
1315208431.656,pano_000000_000564,51.6379309,0.3151159,117.014,1.63699,-2.38425,-120.3378,560302.536,195773.742,71.731
1315208431.776,pano_000000_000565,51.6379436,0.3151554,116.991,1.65793,-2.30122,-120.34504,560305.225,195775.235,71.707
1315208431.896,pano_000000_000566,51.6379562,0.3151948,116.965,1.7619,-2.37587,-120.36401,560307.91,195776.728,71.682
1315208432.016,pano_000000_000567,51.6379689,0.3152343,116.946,1.82116,-2.0681,-120.36276,560310.6,195778.226,71.663
1315208432.136,pano_000000_000568,51.6379815,0.3152738,116.916,1.81666,-2.28255,-120.36505,560313.286,195779.719,71.632
1315208432.256,pano_000000_000569,51.6379941,0.3153133,116.88,1.51456,-2.64531,-120.39458,560315.972,195781.2,71.597
1315208432.376,pano_000000_000570,51.6380067,0.3153528,116.865,1.40292,-2.47644,-120.42617,560318.66,195782.687,71.582
1315208432.496,pano_000000_000571,51.6380194,0.3153923,116.865,1.40192,-2.27344,-120.44714,560321.35,195784.183,71.582
1315208432.616,pano_000000_000572,51.6380321,0.3154317,116.849,1.57643,-2.40168,-120.44553,560324.032,195785.682,71.566
1315208432.736,pano_000000_000573,51.6380448,0.315471,116.82,1.81838,-2.30358,-120.44292,560326.71,195787.186,71.537
1315208432.856,pano_000000_000574,51.6380575,0.3155104,116.791,1.98491,-2.37378,-120.44882,560329.389,195788.687,71.508
1315208432.976,pano_000000_000575,51.6380702,0.3155499,116.772,1.87387,-2.24798,-120.47139,560332.077,195790.184,71.489
1315208433.096,pano_000000_000576,51.6380829,0.3155894,116.744,1.78555,-2.02703,-120.48791,560334.767,195791.68,71.461
1315208433.216,pano_000000_000577,51.6380955,0.3156288,116.705,1.64039,-2.31396,-120.48461,560337.446,195793.17,71.421
1315208433.336,pano_000000_000578,51.6381081,0.3156682,116.68,1.49696,-2.52841,-120.50653,560340.129,195794.661,71.397
1315208433.456,pano_000000_000579,51.6381208,0.3157077,116.669,1.4353,-2.313,-120.51339,560342.819,195796.159,71.386
1315208433.576,pano_000000_000580,51.6381335,0.3157472,116.649,1.45001,-2.27413,-120.52625,560345.502,195797.659,71.366
1315208433.697,pano_000000_000581,51.6381464,0.3157869,116.622,1.55978,-2.31768,-120.5209,560348.204,195799.174,71.339
1315208433.817,pano_000000_000582,51.6381591,0.3158263,116.598,1.63359,-2.31741,-120.52702,560350.886,195800.677,71.315
1315208433.937,pano_000000_000583,51.6381718,0.3158657,116.575,1.66597,-2.48194,-120.54094,560353.567,195802.178,71.292
1315208434.057,pano_000000_000584,51.6381846,0.3159051,116.557,1.60585,-2.28549,-120.53675,560356.254,195803.679,71.274
1315208434.177,pano_000000_000585,51.6381973,0.3159446,116.535,1.56962,-2.25581,-120.56258,560358.938,195805.18,71.252
1315208434.297,pano_000000_000586,51.63821,0.315984,116.51,1.70992,-2.31522,-120.57655,560361.619,195806.685,71.227
1315208434.417,pano_000000_000587,51.6382228,0.3160234,116.485,1.88542,-2.23232,-120.59333,560364.299,195808.195,71.202
1315208434.537,pano_000000_000588,51.6382356,0.3160628,116.459,1.73471,-2.22896,-120.57345,560366.983,195809.697,71.176
1315208434.657,pano_000000_000589,51.6382483,0.3161023,116.432,1.55242,-2.25992,-120.61231,560369.669,195811.194,71.15
1315208434.777,pano_000000_000590,51.638261,0.3161417,116.406,1.57467,-2.35688,-120.63282,560372.35,195812.697,71.123
1315208434.897,pano_000000_000591,51.6382738,0.316181,116.383,1.68733,-2.3898,-120.63169,560375.029,195814.205,71.1
1315208435.017,pano_000000_000592,51.6382866,0.3162204,116.364,1.71969,-2.27922,-120.62,560377.709,195815.713,71.081
1315208435.137,pano_000000_000593,51.6382993,0.3162598,116.345,1.65993,-2.33306,-120.61277,560380.39,195817.216,71.062
1315208435.257,pano_000000_000594,51.638312,0.3162992,116.324,1.59127,-2.50152,-120.6312,560383.071,195818.718,71.041
1315208435.377,pano_000000_000595,51.6383248,0.3163386,116.304,1.55811,-2.33814,-120.60842,560385.753,195820.223,71.021
1315208435.497,pano_000000_000596,51.6383376,0.316378,116.282,1.67464,-2.23825,-120.61181,560388.433,195821.731,70.999
1315208435.617,pano_000000_000597,51.6383504,0.3164174,116.259,1.70979,-2.19346,-120.59077,560391.114,195823.238,70.976
1315208435.737,pano_000000_000598,51.6383631,0.3164568,116.23,1.53512,-2.30468,-120.55588,560393.797,195824.738,70.948
1315208435.857,pano_000000_000599,51.6383758,0.3164963,116.202,1.41989,-2.34807,-120.5833,560396.481,195826.236,70.919
1315208435.977,pano_000000_000600,51.6383885,0.3165357,116.175,1.41646,-2.36199,-120.55713,560399.162,195827.738,70.892
1315208436.097,pano_000000_000601,51.6384012,0.316575,116.158,1.46454,-2.5553,-120.56832,560401.839,195829.239,70.875
1315208436.217,pano_000000_000602,51.638414,0.3166144,116.155,1.55091,-2.34872,-120.56034,560404.523,195830.746,70.872
1315208436.337,pano_000000_000603,51.6384268,0.3166539,116.137,1.67362,-2.19452,-120.54936,560407.205,195832.254,70.854
1315208436.457,pano_000000_000604,51.6384395,0.3166932,116.104,1.64786,-2.23757,-120.53651,560409.885,195833.757,70.821
1315208436.577,pano_000000_000605,51.6384522,0.3167327,116.068,1.40418,-2.1888,-120.50118,560412.572,195835.253,70.786
1315208436.697,pano_000000_000606,51.6384648,0.3167722,116.033,1.09961,-2.30372,-120.51174,560415.258,195836.742,70.751
1315208436.817,pano_000000_000607,51.6384774,0.3168116,116.013,0.96709,-2.36447,-120.50038,560417.943,195838.234,70.73
1315208436.937,pano_000000_000608,51.6384901,0.3168511,115.999,0.94561,-2.38441,-120.50013,560420.627,195839.732,70.717
1315208437.057,pano_000000_000609,51.6385029,0.3168905,115.982,1.05393,-2.10925,-120.4725,560423.31,195841.236,70.7
1315208437.177,pano_000000_000610,51.6385156,0.3169299,115.951,1.18568,-2.32796,-120.44,560425.988,195842.737,70.669
1315208437.297,pano_000000_000611,51.6385283,0.3169693,115.923,1.26892,-2.50204,-120.43936,560428.67,195844.237,70.64
1315208437.418,pano_000000_000612,51.6385411,0.3170091,115.903,1.27582,-2.09501,-120.41827,560431.382,195845.75,70.62
1315208437.538,pano_000000_000613,51.6385538,0.3170486,115.874,1.29056,-2.20534,-120.40355,560434.067,195847.246,70.592
1315208437.658,pano_000000_000614,51.6385665,0.317088,115.847,1.25692,-2.36791,-120.40247,560436.752,195848.741,70.564
1315208437.778,pano_000000_000615,51.6385791,0.3171275,115.822,1.00637,-2.51583,-120.37955,560439.441,195850.229,70.539
1315208437.898,pano_000000_000616,51.6385917,0.3171671,115.804,0.76701,-2.26993,-120.37104,560442.134,195851.717,70.521
1315208438.018,pano_000000_000617,51.6386043,0.3172066,115.785,0.55725,-2.15882,-120.36041,560444.826,195853.205,70.503
1315208438.138,pano_000000_000618,51.6386169,0.3172461,115.76,0.63596,-2.45756,-120.34072,560447.511,195854.697,70.477
1315208438.258,pano_000000_000619,51.6386296,0.3172856,115.732,0.65839,-2.37262,-120.34153,560450.197,195856.192,70.45
1315208438.378,pano_000000_000620,51.6386422,0.3173251,115.707,0.60694,-2.18321,-120.25574,560452.886,195857.684,70.424
1315208438.498,pano_000000_000621,51.6386548,0.3173646,115.684,0.54141,-2.34744,-120.23932,560455.575,195859.171,70.401
1315208438.618,pano_000000_000622,51.6386674,0.3174041,115.661,0.43227,-2.33016,-120.22121,560458.268,195860.657,70.379
1315208438.738,pano_000000_000623,51.63868,0.3174437,115.636,0.38649,-2.27146,-120.20857,560460.959,195862.143,70.354
